,City,Cloudiness,Country,Date,Humidity,Lat,Lng,Max Temp,Wind Speed
0,nikolskoye,10,RU,1669019385,84,59.7035,30.7861,21.09,4.7
1,dikson,31,RU,1669019334,96,73.5069,80.5464,-22.18,4.97
2,pekan,100,MY,1669019417,66,3.4836,103.3996,89.71,3.76
3,brenes,75,ES,1669019418,97,37.5494,-5.8714,55.85,3.44
4,polson,57,US,1669019418,65,47.6936,-114.1632,15.73,1.52
5,amurzet,0,RU,1669019419,60,47.6967,131.0981,18.36,7.76
6,singaraja,99,ID,1669019419,75,-8.112,115.0882,82.81,3.09
7,tuatapere,100,NZ,1669019420,89,-46.1333,167.6833,53.53,6.53
8,yumen,100,CN,1669019420,21,40.2833,97.2,46.85,12.97
9,kapaa,0,US,1669019309,83,22.0752,-159.319,75.52,19.57
10,makubetsu,75,JP,1669019421,87,45.3714,141.8211,40.71,3.44
11,boyolangu,96,ID,1669019421,77,-8.1181,111.8935,82.24,9.17
12,sistranda,0,NO,1669019422,59,63.7256,8.834,28.36,36.71
13,san quintin,91,MX,1669019339,46,30.4833,-115.95,59.94,1.52
14,kahului,20,US,1669019422,72,20.8947,-156.47,77.85,11.99
15,ixtapa,95,MX,1669019376,83,20.7,-105.2,73.22,2.91
16,chon daen,84,TH,1669019423,72,16.1895,100.8596,92.19,5.28
17,cape town,20,ZA,1669019702,57,-33.9258,18.4232,72.01,9.22
18,hobart,40,AU,1669019032,70,-42.8794,147.3294,48.06,19.57
19,jumla,8,NP,1669019391,19,29.2747,82.1838,64.02,6.96
20,jamestown,0,US,1669019165,66,42.097,-79.2353,24.39,8.05
21,sinjar,82,IQ,1669019424,36,36.3209,41.8754,66.04,0.36
22,carnarvon,0,AU,1669019300,46,-24.8667,113.6333,78.71,20.07
23,putina,100,PE,1669019424,61,-15.4667,-69.4333,46.49,1.7
24,aksarka,99,RU,1669019425,89,66.5606,67.7975,3.4,26.13
25,axim,99,GH,1669019425,72,4.8699,-2.2405,81.99,4.32
26,rikitea,100,PF,1669019312,83,-23.1203,-134.9692,69.35,12.97
27,bluff,100,NZ,1669019331,90,-46.6,168.3333,58.8,25.08
28,chuy,100,UY,1669019330,93,-33.6971,-53.4616,66.31,5.41
29,lebu,8,CL,1669019390,77,-37.6167,-73.65,52.29,18.72
30,qaanaaq,23,GL,1669019357,83,77.484,-69.3632,-14.33,6.96
31,carauari,100,BR,1669019347,98,-4.8828,-66.8958,73.11,1.99
32,cabo san lucas,10,MX,1669019329,80,22.8909,-109.9124,68.61,3.29
33,touros,96,BR,1669019328,79,-5.1989,-35.4608,77.4,13.42
34,puerto ayora,84,EC,1669019911,98,-0.7393,-90.3518,68.56,5.01
35,butaritari,14,KI,1669019327,81,3.0707,172.7902,80.78,12.39
36,port lincoln,70,AU,1669019427,58,-34.7333,135.8667,55.53,16.98
37,college,100,US,1669019412,88,64.8569,-147.8028,17.55,0.0
38,georgetown,40,MY,1669019086,75,5.4112,100.3354,86.95,6.91
39,saskylakh,42,RU,1669019333,99,71.9167,114.0833,-34.38,4.59
40,hithadhoo,90,MV,1669019333,75,-0.6,73.0833,80.94,10.36
41,caceres,100,ES,1669019429,87,39.522,-6.3748,58.69,14.09
42,iskateley,100,RU,1669019386,93,67.6803,53.1512,19.9,4.23
43,pundaguitan,81,PH,1669019429,78,6.3711,126.1689,82.62,13.13
44,cauquenes,2,CL,1669019430,58,-35.9671,-72.3225,47.12,3.42
45,cidreira,100,BR,1669019430,88,-30.1811,-50.2056,69.03,16.06
46,hofn,75,IS,1669019431,81,64.2539,-15.2082,42.82,10.36
47,yenagoa,100,NG,1669019431,69,4.9247,6.2642,84.27,3.98
48,hermanus,69,ZA,1669019349,63,-34.4187,19.2345,69.8,8.23
49,luderitz,96,NA,1669019363,58,-26.6481,15.1594,70.47,17.11
50,bredasdorp,81,ZA,1669019373,52,-34.5322,20.0403,70.81,5.64
51,waycross,0,US,1669019432,81,31.2136,-82.354,41.25,5.75
52,virginia beach,20,US,1669019432,69,36.8529,-75.978,34.02,0.0
53,ust-maya,90,RU,1669019433,99,60.4167,134.5333,-18.58,2.95
54,salalah,0,OM,1669019434,27,17.0151,54.0924,91.49,13.8
55,east london,0,ZA,1669019914,68,-33.0153,27.9116,74.34,6.91
56,kantang,40,TH,1669019434,70,7.4054,99.5156,86.09,6.91
57,lata,100,PT,1669019435,88,40.1629,-8.3327,61.07,12.73
58,vanimo,43,PG,1669019435,81,-2.6741,141.3028,80.06,4.29
59,saldanha,63,ZA,1669019436,71,-33.0117,17.9442,64.83,20.07
60,punta arenas,75,CL,1669019321,65,-53.15,-70.9167,44.71,9.22
61,bambous virieux,40,MU,1669019329,61,-20.3428,57.7575,82.65,18.41
62,grand-santi,99,GF,1669019436,99,4.25,-54.3833,71.44,2.39
63,bilma,41,NE,1669019437,10,18.6853,12.9164,78.64,12.55
64,khatanga,40,RU,1669019316,100,71.9667,102.5,-34.65,3.74
65,busselton,0,AU,1669019325,41,-33.65,115.3333,74.55,11.63
66,manacapuru,85,BR,1669019437,60,-3.2997,-60.6206,75.7,1.81
67,ryazan,100,RU,1669019438,91,54.6197,39.74,26.65,6.62
68,kodiak,100,US,1669019438,93,57.79,-152.4072,38.71,4.61
69,port elizabeth,0,ZA,1669019336,64,-33.918,25.5701,76.1,6.91
70,tuktoyaktuk,90,CA,1669019917,94,69.4541,-133.0374,5.52,4.34
71,egvekinot,100,RU,1669019382,89,66.3167,-179.1667,-13.68,13.27
72,ushuaia,40,AR,1669019917,66,-54.8,-68.3,46.06,5.75
73,mount isa,45,AU,1669019439,19,-20.7333,139.5,87.57,17.27
74,atuona,64,PF,1669019319,74,-9.8,-139.0333,77.09,8.63
75,yar-sale,100,RU,1669019440,94,66.8333,70.8333,3.09,17.6
76,sitka,100,US,1669019186,71,57.0531,-135.33,48.09,20.71
77,san patricio,100,US,1669019360,58,28.017,-97.5169,49.87,9.04
78,airai,100,TL,1669019341,88,-8.9266,125.4092,66.38,0.67
79,grindavik,75,IS,1669019919,87,63.8424,-22.4338,39.67,21.85
80,thompson,100,CA,1669019919,79,55.7435,-97.8558,10.56,8.05
81,dwarka,0,IN,1669019441,37,22.2394,68.9678,84.65,8.19
82,alta floresta,0,BR,1669019371,100,-9.8756,-56.0861,71.42,1.14
83,kawalu,69,ID,1669019441,78,-7.3817,108.2082,79.59,5.93
84,saint george,0,US,1669019313,41,37.1041,-113.5841,36.19,3.44
85,huaura,93,PE,1669019442,89,-11.07,-77.5994,63.05,5.01
86,taltal,59,CL,1669019442,88,-25.4,-70.4833,59.11,3.91
87,ribeira grande,75,PT,1669019354,100,38.5167,-28.7,64.8,2.3
88,oranjemund,75,NA,1669019375,75,-28.55,16.4333,65.53,12.1
89,norman wells,75,CA,1669019443,93,65.282,-126.8329,19.44,2.3
90,road town,23,VG,1669019331,73,18.4167,-64.6167,78.89,19.91
91,goundam,100,ML,1669019444,12,16.4145,-3.6708,80.2,19.19
92,alofi,98,NU,1669019444,94,-19.0595,-169.9187,75.09,9.22
93,barrow,100,US,1669019921,80,71.2906,-156.7887,23.02,16.11
94,arraial do cabo,75,BR,1669019922,94,-22.9661,-42.0278,71.56,9.22
95,pokhara,0,NP,1669019445,47,28.2333,83.9833,72.32,5.73
96,novyy urengoy,100,RU,1669019445,97,66.0833,76.6333,-4.54,15.14
97,dolinsk,100,RU,1669019446,85,47.35,142.8,37.0,4.27
98,carutapera,30,BR,1669019353,94,-1.195,-46.02,74.53,5.01
99,longyearbyen,75,SJ,1669019446,81,78.2186,15.6401,37.24,19.57
100,mahebourg,40,MU,1669019446,61,-20.4081,57.7,82.69,18.41
101,kailua,10,US,1669019447,81,21.4022,-157.7394,78.78,5.01
102,acapulco,20,MX,1669019447,78,16.8634,-99.8901,76.82,5.75
103,komsomolskiy,75,UZ,1669019448,81,40.4272,71.7189,47.12,0.0
104,srednekolymsk,58,RU,1669019448,100,67.45,153.6833,-35.45,2.46
105,terme,92,TR,1669019448,41,41.2092,36.9739,71.53,3.69
106,medea,8,DZ,1669019449,61,36.2642,2.7539,51.03,6.11
107,kyshtovka,92,RU,1669019449,94,56.555,76.6271,9.45,8.39
108,high level,100,CA,1669019406,80,58.5169,-117.136,23.11,2.3
109,yaan,97,NG,1669019450,53,7.3833,8.5667,84.18,7.16
110,zamora,83,EC,1669019450,98,-4.0692,-78.9567,65.12,4.54
111,mangrol,35,IN,1669019451,34,21.1167,70.1167,85.46,5.91
112,cordoba,100,AR,1669019451,94,-31.4135,-64.1811,57.18,8.05
113,pelym,100,RU,1669019451,82,61.0108,61.9978,24.15,9.78
114,mundo nuevo,100,MX,1669019452,82,18.7,-95.5,71.01,23.91
115,sao joao da barra,96,BR,1669019452,91,-21.6403,-41.0511,71.42,8.93
116,albany,75,US,1669019847,76,42.6001,-73.9662,24.03,4.74
117,avera,81,US,1669019453,46,33.194,-82.5271,31.51,7.31
118,panaba,61,MX,1669019453,93,21.2833,-88.2667,72.41,2.44
119,tual,100,ID,1669019454,73,-5.6667,132.75,84.83,10.51
120,butembo,96,CD,1669019454,87,0.15,29.2833,65.95,0.4
121,boueni,0,YT,1669019454,75,-12.9025,45.0761,85.98,1.92
122,belmira,100,CO,1669019455,98,6.6051,-75.6662,50.34,1.28
123,chokurdakh,98,RU,1669019334,100,70.6333,147.9167,-32.35,1.39
124,bengkulu,57,ID,1669019328,70,-3.8004,102.2655,82.99,10.69
125,hornepayne,100,CA,1669019455,90,49.2138,-84.7705,25.48,13.38
126,limburg,100,NL,1669019456,92,51.25,6.0,45.3,6.22
127,williams lake,100,CA,1669019207,93,52.1415,-122.1445,29.77,5.75
128,castro,23,BR,1669019383,99,-24.7911,-50.0119,57.04,4.14
129,kearney,7,US,1669019436,33,40.6995,-99.0815,33.26,4.0
130,hilo,75,US,1669019684,91,19.7297,-155.09,71.26,8.05
131,yellowknife,100,CA,1669019886,93,62.456,-114.3525,23.52,10.36
132,port hardy,100,CA,1669019457,87,50.6996,-127.4199,42.98,9.22
133,helong,28,CN,1669019458,83,42.5397,128.9972,26.17,4.52
134,vaini,75,TO,1669019928,94,-21.2,-175.2,75.36,2.3
135,ginda,10,IN,1669019458,21,30.6945,78.4932,65.61,4.99
136,kruisfontein,9,ZA,1669019351,39,-34.0033,24.7314,73.89,7.4
137,saint-georges,20,GD,1669019459,83,12.0564,-61.7485,78.48,6.91
138,ostrovnoy,100,RU,1669019393,84,68.0531,39.5131,35.94,4.97
139,bereda,97,ES,1669019459,100,43.2686,-7.5406,54.41,9.78
140,waipawa,40,NZ,1669019460,77,-41.4122,175.5153,58.66,17.45
141,puerto del rosario,75,ES,1669019460,78,28.5004,-13.8627,69.55,17.27
142,dubbo,40,AU,1669019461,41,-32.25,148.6167,60.93,14.97
143,carnoustie,100,GB,1669019461,100,56.5014,-2.7091,34.7,4.61
144,kaitangata,100,NZ,1669019372,97,-46.2817,169.8464,56.23,1.66
145,faanui,17,PF,1669019355,73,-16.4833,-151.75,78.62,15.46
146,leshukonskoye,100,RU,1669019462,99,64.8989,45.7622,32.22,4.97
147,avarua,20,CK,1669019331,68,-21.2078,-159.775,73.45,6.91
148,haines junction,98,CA,1669019463,75,60.7522,-137.5108,35.55,4.61
149,mataura,100,NZ,1669019931,97,-46.1927,168.8643,58.48,7.52
150,lethem,100,GY,1669019464,79,3.3803,-59.7968,76.53,8.23
151,makakilo city,75,US,1669019891,67,21.3469,-158.0858,77.32,9.22
152,kysyl-syr,79,RU,1669019465,100,63.8986,122.7617,-28.61,1.14
153,beni,100,CD,1669019465,58,0.5,29.4667,77.83,3.33
154,naze,10,JP,1669019933,78,28.3667,129.4833,72.52,5.91
155,goroka,97,PG,1669019466,97,-6.0834,145.3873,62.8,0.51
156,geraldton,2,AU,1669019933,26,-28.7667,114.6,84.61,26.46
157,broome,100,US,1669019337,77,42.2506,-75.833,24.71,4.61
158,berlevag,100,NO,1669019467,87,70.8578,29.0864,37.4,10.36
159,krasnoselkup,76,RU,1669019467,97,65.7,82.4667,-20.0,8.28
160,vechelde,100,DE,1669019467,89,52.2604,10.3649,32.2,3.44
161,doka,0,SD,1669019468,24,13.5167,35.7667,93.13,9.48
162,mar del plata,100,AR,1669019368,95,-38.0023,-57.5575,61.09,15.01
163,tomatlan,100,MX,1669019468,82,19.9333,-105.25,70.86,3.62
164,okahandja,100,NA,1669019469,19,-21.9833,16.9167,88.3,7.29
165,nishihara,40,JP,1669019469,75,26.1842,127.7558,76.68,10.36
166,lavrentiya,100,RU,1669019470,79,65.5833,-171.0,20.7,24.79
167,bethel,0,US,1669019935,60,41.3712,-73.414,26.49,3.44
168,buala,100,SB,1669019470,78,-8.145,159.5921,81.23,6.58
169,khandagayty,72,RU,1669019471,91,50.7333,92.05,13.14,0.98
170,iqaluit,83,CA,1669019471,99,63.7506,-68.5145,-3.28,2.68
171,ilulissat,20,GL,1669019346,68,69.2167,-51.1,21.22,2.3
172,dondo,99,MZ,1669019472,65,-19.6094,34.7431,80.11,9.19
173,felipe carrillo puerto,100,MX,1669019472,99,19.5833,-88.05,70.77,2.15
174,nome,100,US,1669019385,86,64.5011,-165.4064,30.27,0.0
175,bonfim,100,BR,1669019473,74,3.0833,-59.95,78.03,6.35
176,torbay,75,CA,1669019731,88,47.6666,-52.7314,36.57,28.77
177,shimoda,40,JP,1669019473,82,34.6667,138.95,59.11,8.68
178,barguzin,100,RU,1669019474,87,53.6167,109.6167,8.46,4.03
179,tiksi,89,RU,1669019474,100,71.6872,128.8694,-19.35,3.47
180,bulgan,15,MN,1669019475,80,48.8125,103.5347,19.87,1.59
181,provideniya,100,RU,1669019938,89,64.3833,-173.3,15.73,13.04
182,mayumba,100,GA,1669019476,92,-3.432,10.6554,74.25,3.18
183,hovd,66,MN,1669019476,31,48.0056,91.6419,35.06,4.12
184,rio gallegos,0,AR,1669019477,81,-51.6226,-69.2181,37.45,2.3
185,buraydah,0,SA,1669019389,30,26.326,43.975,68.45,4.07
186,mitu,100,CO,1669019477,100,1.1983,-70.1733,71.55,2.42
187,port alfred,0,ZA,1669019350,78,-33.5906,26.891,71.19,1.99
188,ust-nera,100,RU,1669019478,99,64.5667,143.2,-7.96,4.29
189,tasiilaq,100,GL,1669019939,84,65.6145,-37.6368,34.41,11.65
190,new norfolk,29,AU,1669019362,63,-42.7826,147.0587,47.71,5.99
191,zeya,99,RU,1669019479,97,53.75,127.2667,10.85,2.24
192,pacific grove,0,US,1669019479,69,36.6177,-121.9166,53.42,1.01
193,padang,52,ID,1669019878,71,-0.9492,100.3543,86.05,5.08
194,karratha,99,AU,1669019480,28,-20.7377,116.8463,84.36,20.24
195,dillon,56,US,1669019480,39,34.4166,-79.3712,33.78,6.49
196,romny,100,UA,1669019481,100,50.751,33.4747,33.53,6.11
197,maceio,40,BR,1669019481,94,-9.6658,-35.7353,72.84,4.61
198,hasaki,88,JP,1669019353,82,35.7333,140.8333,59.4,10.89
199,mehamn,75,NO,1669019482,87,71.0357,27.8492,37.35,10.36
200,hervey bay,19,AU,1669019482,87,-25.2986,152.8535,80.02,14.0
201,yulara,77,AU,1669019346,18,-25.2406,130.9889,83.14,12.46
202,havre-saint-pierre,100,CA,1669019483,63,50.2334,-63.5986,23.0,4.61
203,santa maria,100,BR,1669019483,97,-29.6842,-53.8069,65.68,7.27
204,yeniseysk,100,RU,1669019484,89,58.4497,92.1703,2.07,11.12
205,hailar,2,CN,1669019484,90,49.2,119.7,3.99,5.41
206,talnakh,100,RU,1669019942,94,69.4865,88.3972,-21.37,1.86
207,souillac,40,MU,1669019383,61,-20.5167,57.5167,82.78,18.41
208,joshimath,74,IN,1669019485,22,30.5667,79.5667,63.21,7.45
209,aberdeen,20,GB,1669019367,100,57.1437,-2.0981,35.49,2.3
210,guerrero negro,66,MX,1669019202,64,27.9769,-114.0611,59.45,2.13
211,los llanos de aridane,40,ES,1669019167,80,28.6585,-17.9182,64.15,11.5
212,aksu,3,CN,1669019487,20,41.1231,80.2644,48.7,2.98
213,conde,20,BR,1669019487,88,-7.2597,-34.9075,72.86,3.44
214,fairbanks,100,US,1669019944,88,64.8378,-147.7164,17.56,0.0
215,zyryanka,94,RU,1669019488,99,65.75,150.85,-31.36,0.87
216,victor harbor,83,AU,1669019488,61,-35.5667,138.6167,55.99,3.0
217,bandarbeyla,62,SO,1669019488,63,9.4942,50.8122,81.97,21.72
218,krasnyy chikoy,82,RU,1669019489,92,50.3643,108.7512,8.92,0.89
219,gat,100,IL,1669019489,29,31.61,34.7642,81.28,4.0
220,walvis bay,85,NA,1669019490,76,-22.9575,14.5053,66.09,10.49
221,bulanash,29,RU,1669019490,79,57.2783,61.9965,21.02,9.19
222,tsabong,96,BW,1669019490,10,-26.0217,22.401,88.77,11.63
223,tromso,0,NO,1669019491,93,69.6496,18.957,29.37,2.3
224,kavieng,100,PG,1669019491,67,-2.5744,150.7967,83.05,11.16
225,aksehir,96,TR,1669019492,35,38.3575,31.4164,61.93,9.06
226,homer,100,US,1669019492,88,59.6425,-151.5483,42.04,3.0
227,usinsk,21,RU,1669019492,93,65.9939,57.5281,10.26,10.07
228,saint-joseph,12,RE,1669019493,63,-21.3667,55.6167,82.09,3.78
229,preston,40,GB,1669019364,93,53.7667,-2.7167,43.18,9.22
230,upernavik,100,GL,1669019947,95,72.7868,-56.1549,8.8,14.56
231,sao geraldo do araguaia,48,BR,1669019493,94,-6.4006,-48.555,70.9,0.56
232,huarmey,95,PE,1669019377,90,-10.0681,-78.1522,63.19,4.99
233,havelock,0,US,1669019494,61,34.8791,-76.9013,43.93,5.75
234,fortuna,0,US,1669019348,93,40.5982,-124.1573,40.12,9.22
235,dalbandin,12,PK,1669019494,17,28.8947,64.4101,72.88,3.8
236,victoria,96,HK,1669019804,81,22.2855,114.1577,81.18,15.01
237,salym,100,RU,1669019495,88,60.0625,71.4789,16.57,13.2
238,vadamadurai,36,IN,1669019495,53,10.4667,78.0833,83.59,7.49
239,antofagasta,57,CL,1669019496,88,-23.65,-70.4,61.88,1.43
240,baijiantan,59,CN,1669019496,45,45.6333,85.1833,48.69,14.38
241,dumas,0,US,1669019497,68,35.8656,-101.9732,29.53,8.05
242,codrington,76,AU,1669019949,74,-38.2667,141.9667,47.97,26.49
243,beloha,46,MG,1669019497,44,-25.1667,45.05,79.66,13.91
244,ancud,66,CL,1669019498,82,-41.8697,-73.8203,43.11,4.16
245,panama city,100,PA,1669019352,87,8.9936,-79.5197,79.38,6.13
246,lovozero,99,RU,1669019391,86,68.005,35.0117,26.98,3.71
247,saint-philippe,6,RE,1669019498,63,-21.3585,55.7679,83.1,7.38
248,wajima,20,JP,1669019499,100,37.4,136.9,56.08,1.14
249,requena,99,ES,1669019499,76,39.4883,-1.1004,55.53,25.64
250,lasa,64,IT,1669019500,61,46.6166,10.7002,38.28,3.6
251,araouane,41,ML,1669019951,13,18.9048,-3.5265,75.16,18.68
252,palmer,0,US,1669019500,61,42.1584,-72.3287,24.49,8.05
253,wuwei,99,CN,1669019500,26,37.9281,102.6414,43.77,3.09
254,ust-kan,96,RU,1669019501,86,50.9276,84.761,18.43,1.54
255,nouadhibou,0,MR,1669019501,77,20.931,-17.0347,64.38,13.8
256,lompoc,0,US,1669019502,53,34.6391,-120.4579,49.59,11.5
257,ludvika,100,SE,1669019502,83,60.1496,15.1878,29.34,9.98
258,coahuayana,97,MX,1669019502,84,18.7333,-103.6833,74.14,4.59
259,tadine,36,NC,1669019503,84,-21.55,167.8833,76.62,5.06
260,svetlogorsk,95,BY,1669019503,94,52.6333,29.7333,26.24,5.14
261,envira,66,BR,1669019503,78,-7.3,-70.2167,77.14,1.92
262,labuhan,99,ID,1669019504,72,-6.8844,112.2051,84.29,6.96
263,clyde river,0,CA,1669019504,77,70.4692,-68.5914,-12.77,14.97
264,acarau,82,BR,1669019369,72,-2.8856,-40.12,79.66,15.21
265,uthal,0,PK,1669019505,38,25.8072,66.6219,86.52,4.7
266,hamilton,0,US,1669019731,55,39.1834,-84.5333,27.75,6.91
267,sao jose da coroa grande,99,BR,1669019505,78,-8.8978,-35.1478,77.07,7.56
268,grushevskaya,0,RU,1669019506,88,47.4406,39.9511,58.08,6.71
269,killybegs,100,IE,1669019506,86,54.6333,-8.45,46.11,21.05
270,linares,0,CL,1669019306,64,-35.85,-71.6,47.79,3.56
271,junin,99,AR,1669019507,89,-34.5838,-60.9433,55.89,11.86
272,pyinmana,42,MM,1669019507,53,19.7333,96.2167,86.49,4.32
273,ponta do sol,43,PT,1669019955,71,32.6667,-17.1,65.12,3.65
274,buchanan,99,LR,1669019508,82,5.8808,-10.0467,78.35,4.21
275,lokot,100,RU,1669019508,94,52.565,34.5776,26.82,9.55
276,pevek,100,RU,1669019955,96,69.7008,170.3133,-8.66,8.57
277,kapit,100,MY,1669019509,77,2.0167,112.9333,83.37,2.26
278,caravelas,100,BR,1669019387,95,-17.7125,-39.2481,70.77,4.52
279,sarangani,81,PH,1669019509,77,5.4033,125.4636,82.13,5.57
280,camana,100,PE,1669019510,87,-16.6228,-72.7111,64.29,3.49
281,cuamba,6,MZ,1669019510,26,-14.8031,36.5372,97.56,3.36
282,creel,0,MX,1669019510,83,27.75,-107.6333,31.84,5.08
283,hambantota,20,LK,1669019511,49,6.1241,81.1185,91.74,5.75
284,kashi,0,CN,1669019511,18,39.4547,75.9797,58.21,6.71
285,kant,0,IN,1669019512,28,27.8,79.8,79.47,7.63
286,osterburg,84,DE,1669019512,83,52.7833,11.7667,27.12,5.59
287,husavik,100,IS,1669019512,81,66.0449,-17.3389,42.17,13.78
288,richards bay,7,ZA,1669019513,44,-28.783,32.0377,80.37,10.78
289,sawakin,39,SD,1669019513,65,19.1059,37.3321,84.06,9.89
290,qaqortoq,91,GL,1669019364,86,60.7167,-46.0333,19.74,3.36
291,watrous,72,CA,1669019514,67,51.6668,-105.4679,15.58,5.75
292,gorom-gorom,60,BF,1669019514,11,14.4439,-0.2361,83.17,15.32
293,conceicao das alagoas,19,BR,1669019514,73,-19.9147,-48.3883,73.18,3.49
294,eganville,53,CA,1669019515,74,45.5334,-77.0994,16.52,7.09
295,solnechnyy,70,RU,1669019515,79,50.7214,136.6319,18.81,4.14
296,camocim,17,BR,1669019516,77,-2.9022,-40.8411,78.17,12.35
297,port townsend,100,US,1669019516,91,48.117,-122.7605,44.53,3.0
298,bhawanipatna,91,IN,1669019516,43,19.9,83.1667,79.59,4.99
299,aklavik,100,CA,1669019393,97,68.2191,-135.0107,6.15,3.56
300,adrar,0,MR,1669019517,15,20.5022,-10.0711,71.53,17.67
301,utamysh,100,RU,1669019517,43,42.4072,47.7511,53.33,6.73
302,ryotsu,18,JP,1669019518,81,38.0833,138.4333,58.01,3.51
303,bartica,99,GY,1669019518,99,6.4,-58.6167,73.72,0.78
304,waingapu,47,ID,1669019519,69,-9.6567,120.2641,85.12,9.82
305,japura,100,ID,1669019519,53,-0.3167,102.35,90.0,2.48
306,nuuk,94,GL,1669019961,80,64.1835,-51.7216,19.63,4.32
307,coruripe,94,BR,1669019447,79,-10.1256,-36.1756,76.89,10.96
308,russell,0,US,1669019392,93,32.3502,-85.1999,34.83,0.0
309,ahipara,100,NZ,1669019520,97,-35.1667,173.1667,64.0,9.91
310,concordia,100,AR,1669019404,100,-31.393,-58.0209,68.79,1.99
311,santa maria da boa vista,97,BR,1669019521,66,-8.8078,-39.8256,74.59,14.79
312,sao filipe,30,CV,1669019962,66,14.8961,-24.4956,74.64,9.73
313,loandjili,100,CG,1669019521,94,-4.7561,11.8578,77.11,6.91
314,zemio,80,CF,1669019522,25,5.0314,25.1361,88.81,6.35
315,vorontsovka,100,RU,1669019522,100,50.6132,40.3549,35.47,4.14
316,pangai,100,TO,1669019522,70,-19.8,-174.35,78.42,9.51
317,dhidhdhoo,100,MV,1669019523,69,6.8833,73.1,81.52,15.93
318,filadelfia,0,US,1669019307,56,39.9523,-75.1638,28.08,9.22
319,almansa,97,ES,1669019523,69,38.8692,-1.0971,53.92,20.45
320,severo-kurilsk,100,RU,1669019524,85,50.6789,156.125,37.36,14.47
321,dovers,17,VC,1669019524,78,12.8833,-61.1833,79.61,17.54
322,te anau,100,NZ,1669019964,92,-45.4167,167.7167,50.77,6.15
323,impfondo,60,CG,1669019525,54,1.6381,18.0667,88.47,1.99
324,kieta,44,PG,1669019526,73,-6.2167,155.6333,79.56,3.36
325,dovolnoye,74,RU,1669019526,83,54.4958,79.6671,12.63,8.81
326,kalyazin,85,RU,1669019527,92,57.2403,37.8433,21.0,4.07
327,tarakan,75,ID,1669019527,78,3.3,117.6333,81.9,4.61
328,arkadelphia,0,US,1669019528,91,34.1209,-93.0538,27.57,0.0
329,esperance,1,AU,1669019528,59,-33.8667,121.9,59.65,16.28
330,rajula,2,IN,1669019528,22,21.05,71.4333,87.64,12.95
331,sola,23,VU,1669019367,72,-13.8833,167.55,82.76,8.88
332,miguel hidalgo,75,MX,1669019345,76,19.4225,-99.2028,55.51,5.75
333,revda,5,RU,1669019529,68,56.801,59.9303,17.85,10.38
334,bud,0,US,1669019529,52,39.447,-86.1758,27.14,7.9
335,cape girardeau,0,US,1669019530,69,37.3834,-89.7168,22.01,7.23
336,vila franca do campo,83,PT,1669019966,96,37.7167,-25.4333,68.2,8.5
337,elesbao veloso,40,BR,1669019530,61,-6.2019,-42.1403,74.1,2.86
338,chimbote,91,PE,1669019248,87,-9.0853,-78.5783,62.55,4.09
339,ungaran,40,ID,1669019531,66,-7.1397,110.405,83.86,9.22
340,eureka,47,US,1669019531,55,40.8021,-124.1637,40.39,4.79
341,panguna,65,PG,1669019532,88,-6.3164,155.4848,69.31,2.04
342,dingle,89,PH,1669019532,88,10.9995,122.6711,79.59,5.93
343,batemans bay,2,AU,1669019370,45,-35.7167,150.1833,62.1,15.05
344,katsuura,78,JP,1669019533,89,35.1333,140.3,61.86,9.73
345,codajas,82,BR,1669019533,77,-3.8367,-62.0569,74.12,1.41
346,pullman,0,US,1669019280,72,46.7313,-117.1796,30.9,0.0
347,vila velha,75,BR,1669019534,97,-20.3297,-40.2925,70.95,2.3
348,manicore,96,BR,1669019534,78,-5.8092,-61.3003,74.14,2.57
349,qurayyat,0,SA,1669019534,42,31.3318,37.3428,62.78,13.8
350,margate,100,GB,1669019801,86,51.3813,1.3862,50.9,4.0
351,grand gaube,2,MU,1669019535,71,-20.0064,57.6608,82.8,11.16
352,mvuma,74,ZW,1669019535,60,-19.2792,30.5283,70.16,8.57
353,nanortalik,88,GL,1669019969,87,60.1432,-45.2371,26.56,8.63
354,beringovskiy,5,RU,1669019536,88,63.05,179.3167,-4.38,22.26
355,opuwo,97,NA,1669019969,38,-18.0607,13.84,81.23,5.77
356,ambalavao,55,MG,1669019537,52,-21.8333,46.9333,76.35,11.48
357,houma,0,US,1669019537,80,29.5958,-90.7195,43.0,6.91
358,bathsheba,20,BB,1669019537,78,13.2167,-59.5167,81.21,21.85
359,brae,100,GB,1669019538,69,60.3964,-1.353,44.67,13.71
360,baykit,27,RU,1669019538,100,61.67,96.37,-21.41,1.41
361,birao,22,CF,1669019539,12,10.2849,22.7882,90.39,8.03
362,petropavlovsk-kamchatskiy,75,RU,1669019539,63,53.0452,158.6483,23.59,6.71
363,kristiansund,0,NO,1669019539,47,63.1115,7.732,32.65,9.22
364,beira,100,MZ,1669019540,69,-19.8436,34.8389,80.69,11.5
365,fereydun kenar,3,IR,1669019540,54,36.6864,52.5225,67.8,10.47
366,noumea,95,NC,1669019971,87,-22.2763,166.4572,76.98,4.25
367,atar,0,MR,1669019541,14,20.5169,-13.0499,76.12,12.19
368,luyang,95,CN,1669019541,83,27.6239,110.0989,65.77,3.83
369,klaksvik,19,FO,1669019542,81,62.2266,-6.589,45.52,15.68
370,marsh harbour,88,BS,1669019542,74,26.5412,-77.0636,78.19,19.86
371,pietarsaari,12,FI,1669019542,88,63.65,22.6833,28.89,4.74
372,viedma,0,AR,1669019457,67,-40.8135,-62.9967,47.95,6.17
373,cumpas,0,MX,1669019543,58,29.9833,-109.7833,46.87,7.07
374,dzilam gonzalez,100,MX,1669019543,93,21.2833,-88.9333,72.91,3.22
375,smoky lake,100,CA,1669019544,86,54.1169,-112.4686,30.92,3.44
376,cherskiy,100,RU,1669019973,100,68.75,161.3,-21.64,4.92
377,santa cruz,75,BO,1669019544,83,-17.8,-63.1667,74.66,2.3
378,evensk,100,RU,1669019545,75,61.95,159.2333,2.68,7.61
379,nha trang,100,VN,1669019458,95,12.25,109.1833,77.0,3.8
380,praia da vitoria,75,PT,1669019546,100,38.7333,-27.0667,61.75,2.8
381,henties bay,99,NA,1669019547,79,-22.116,14.2845,64.13,13.18
382,coquimbo,100,CL,1669019547,100,-29.9533,-71.3436,56.93,2.3
383,erzin,100,TR,1669019548,42,36.9559,36.2,70.81,1.01
384,iquique,54,CL,1669019548,77,-20.2208,-70.1431,60.84,2.1
385,sibolga,61,ID,1669019549,74,1.7427,98.7792,81.93,5.21
386,maracaibo,29,VE,1669019549,85,10.6317,-71.6406,75.45,8.41
387,san cristobal,100,VE,1669019378,96,7.7669,-72.225,64.67,1.59
388,peace river,75,CA,1669019550,100,56.2501,-117.286,28.71,6.91
389,pulaski,0,US,1669019550,74,34.7668,-92.3001,31.82,0.0
390,puerto princesa,75,PH,1669019550,84,9.7392,118.7353,84.18,4.61
391,vao,56,NC,1669019377,82,-22.6667,167.4833,75.92,9.62
392,bajil,6,YE,1669019551,44,15.0584,43.2851,88.83,6.85
393,tura,36,IN,1669019551,56,25.5198,90.2201,75.6,3.49
394,tilichiki,28,RU,1669019552,90,60.4667,166.1,-8.14,7.9
395,solnechnogorsk,94,RU,1669019552,85,56.1833,36.9833,22.86,4.68
396,la reforma,3,MX,1669019553,66,25.0833,-108.05,61.79,6.29
397,muroto,100,JP,1669019553,64,33.2833,134.15,67.6,2.21
398,sur,0,OM,1669019553,45,22.5667,59.5289,81.81,8.59
399,liverpool,20,GB,1669019554,92,53.4106,-2.9779,43.34,11.5
400,mocuba,22,MZ,1669019554,39,-16.8392,36.9856,93.25,7.99
401,pirawa,0,IN,1669019555,19,24.1551,76.0273,80.55,8.23
402,lafiagi,16,NG,1669019555,21,8.8667,5.4167,87.48,3.96
403,tatawin,0,TN,1669019555,38,32.9297,10.4518,60.4,11.61
404,illescas,100,ES,1669019556,88,40.1221,-3.847,57.4,20.27
405,laguna,0,US,1669019556,84,38.421,-121.4238,52.09,0.0
406,chardara,100,KZ,1669019557,63,41.2547,67.9692,55.53,3.11
407,trapani,40,IT,1669019557,77,37.8333,12.6667,62.69,21.85
408,barcelos,100,PT,1669019557,88,41.5388,-8.6151,62.74,14.09
409,oistins,20,BB,1669019558,78,13.0667,-59.5333,80.69,21.85
410,vagamo,88,NO,1669019558,77,61.8751,9.0967,23.22,4.92
411,alberdi,100,AR,1669019559,98,-32.8899,-60.6906,61.34,12.66
412,namibe,82,AO,1669019559,73,-15.1961,12.1522,77.02,10.78
413,brandys nad labem-stara boleslav,75,CZ,1669019559,81,50.1871,14.6633,44.22,13.8
414,matagami,100,CA,1669019560,85,49.7502,-77.6328,6.91,11.5
415,lucea,48,JM,1669019560,80,18.451,-78.1736,72.86,9.89
416,baruun-urt,20,MN,1669019561,48,46.6806,113.2792,19.62,7.18
417,asau,100,RO,1669019561,98,46.4333,26.4,31.28,4.36
418,amberley,0,US,1669019561,58,39.2048,-84.428,27.05,1.99
419,bose,47,IT,1669019562,42,45.4612,8.0137,49.73,0.83
420,camopi,85,GF,1669019562,100,3.1655,-52.3158,70.02,1.81
421,santa isabel do rio negro,89,BR,1669019562,89,-0.4139,-65.0192,73.4,2.51
422,cayenne,100,GF,1669019563,94,4.9333,-52.3333,75.24,0.0
423,isangel,3,VU,1669019563,83,-19.55,169.2667,79.29,1.99
424,lorengau,91,PG,1669019564,71,-2.0226,147.2712,82.24,8.9
425,semey,0,KZ,1669019564,79,50.4111,80.2275,19.62,11.18
426,aksha,84,RU,1669019564,89,50.2814,113.2867,10.02,1.48
427,panguipulli,25,CL,1669019565,76,-39.6333,-72.3333,39.02,2.53
428,humaita,65,BR,1669019565,76,-7.5061,-63.0208,76.98,0.94
429,minamata,36,JP,1669019566,70,32.2167,130.4,62.22,6.13
430,pleshanovo,100,RU,1669019566,91,52.8333,53.4833,27.75,1.63
431,pucallpa,83,PE,1669019567,87,-8.3791,-74.5539,73.76,2.48
432,tazovskiy,99,RU,1669019567,97,67.4667,78.7,-18.35,11.12
433,urumqi,75,CN,1669019568,81,43.801,87.6005,34.75,6.71
434,mpophomeni,10,ZA,1669019568,23,-29.5682,30.1862,79.75,3.69
435,vangaindrano,67,MG,1669019568,53,-23.35,47.6,83.25,11.12
436,okha,46,RU,1669019569,92,53.5739,142.9478,21.83,10.18
437,salinas,0,US,1669019491,45,36.6777,-121.6555,56.07,3.44
438,nagapattinam,25,IN,1669019569,52,10.7667,79.8333,83.82,6.46
439,belaya gora,93,RU,1669019386,100,68.5333,146.4167,-31.11,0.51
440,olinda,40,BR,1669019570,73,-8.0089,-34.8553,78.53,6.91
441,cabedelo,47,BR,1669019570,69,-6.9811,-34.8339,74.07,11.97
442,ust-omchug,100,RU,1669019571,97,61.15,149.6333,5.92,5.17
443,portoferraio,40,IT,1669019424,82,42.8115,10.3146,59.09,2.3
444,mandalgovi,6,MN,1669019571,43,45.7625,106.2708,29.03,10.45
445,aitape,63,PG,1669019572,81,-3.1374,142.3475,81.03,4.94
446,apodi,69,BR,1669019572,61,-5.6642,-37.7989,77.63,8.95
447,daru,68,PG,1669019572,77,-9.0763,143.2092,82.02,6.53
448,merauke,78,ID,1669019573,75,-8.4667,140.3333,81.55,4.76
449,tombouctou,81,ML,1669019573,17,20.0,-3.0,72.1,20.07
450,nova vicosa,100,BR,1669019574,91,-17.8919,-39.3719,72.54,9.4
451,santa lucia,20,ES,1669019574,73,27.9117,-15.5407,61.92,14.97
452,venado tuerto,99,AR,1669019575,84,-33.7456,-61.9688,52.36,12.62
453,springbok,100,ZA,1669019575,14,-29.6643,17.8865,81.66,10.27
454,trelew,0,AR,1669019575,61,-43.249,-65.3051,51.62,11.86
455,omboue,100,GA,1669019576,88,-1.5746,9.2618,76.55,7.58
456,olafsvik,56,IS,1669019576,72,64.8945,-23.7142,42.69,12.91
457,mamontovo,99,RU,1669019577,63,52.7055,81.6244,15.78,6.33
458,monrovia,98,LR,1669019577,86,6.3005,-10.7969,76.91,5.75
459,aksay,99,RU,1669019577,75,47.26,39.87,57.42,5.99
460,izhmorskiy,29,RU,1669019578,87,56.194,86.6414,1.31,7.45
461,flinders,0,AU,1669019578,44,-34.5833,150.8552,62.06,21.83
462,flin flon,60,CA,1669019578,97,54.7682,-101.865,9.45,4.56
463,narasannapeta,88,IN,1669019520,53,18.4167,84.05,82.2,12.68
464,santa marta,96,CO,1669019296,76,11.2408,-74.199,81.9,11.99
465,sakaiminato,75,JP,1669019579,67,35.55,133.2333,62.58,3.44
466,shakawe,56,BW,1669019580,14,-18.3667,21.85,94.87,10.11
467,slave lake,100,CA,1669019580,100,55.2834,-114.769,31.98,4.61
468,rongcheng,92,CN,1669019580,72,30.634,117.8517,65.77,3.78
469,north bend,0,US,1669019581,93,43.4065,-124.2243,42.85,9.22
470,methven,3,NZ,1669019581,60,-43.6333,171.65,58.01,3.0
471,zhanaozen,98,KZ,1669019582,68,43.3,52.8,56.44,4.52
472,oum hadjer,5,TD,1669019582,12,13.2954,19.6966,86.11,6.62
473,greenville,0,US,1669019435,92,35.6127,-77.3663,29.14,0.0
474,nara,42,JP,1669019583,56,34.6851,135.8049,63.5,3.98
475,shieli,88,KZ,1669019583,55,44.1667,66.75,51.03,12.97
476,kushima,11,JP,1669019583,84,31.4583,131.2333,62.76,3.69
477,portland,20,US,1669019902,65,45.5234,-122.6762,41.61,7.0
478,ust-kut,100,RU,1669019584,90,56.7938,105.7672,9.0,1.61
479,robertsport,98,LR,1669019584,82,6.7533,-11.3686,78.06,3.4
480,kohima,54,IN,1669019585,57,25.6667,94.1167,68.13,3.74
481,tateyama,82,JP,1669019991,88,34.9833,139.8667,61.11,9.78
482,maraba,0,BR,1669019586,100,-5.3686,-49.1178,71.78,0.0
483,rio grande,100,BR,1669019992,90,-32.035,-52.0986,69.51,14.63
484,bjerkvik,0,NO,1669019586,56,68.5597,17.5189,27.0,8.52
485,mineiros,36,BR,1669019587,86,-17.5694,-52.5511,64.94,4.47
486,ngunguru,100,NZ,1669019587,95,-35.6167,174.5,63.68,8.16
487,challans,100,FR,1669019588,90,46.8436,-1.8749,54.97,17.11
488,muros,69,ES,1669019777,87,42.7762,-9.0603,59.09,20.62
489,tanabe,75,JP,1669019511,77,33.7333,135.3667,63.61,8.05
490,lucapa,97,AO,1669019588,64,-8.4192,20.7447,79.84,3.2
491,kroya,51,ID,1669019589,74,-7.6331,109.2461,81.82,8.1
492,kiunga,90,PG,1669019589,89,-6.1219,141.2906,76.73,0.43
493,sindor,100,RU,1669019590,96,62.8629,51.8905,26.1,6.2
494,tessalit,88,ML,1669019590,15,20.1986,1.0114,73.42,15.77
495,sinnamary,74,GF,1669019590,88,5.3833,-52.95,77.23,9.48
496,celestun,99,MX,1669019591,88,20.8667,-90.4,74.98,11.01
497,mirnyy,97,RU,1669019591,83,62.5353,113.9611,-6.77,1.99
498,dodola,0,ET,1669019592,38,6.9833,39.1833,65.77,5.97
499,harsin,0,IR,1669019592,26,34.2721,47.5861,59.81,4.52
500,antalaha,11,MG,1669019995,69,-14.9003,50.2788,80.85,11.95
501,atlantic city,0,US,1669019529,61,39.3643,-74.4229,28.98,3.0
502,lazaro cardenas,97,MX,1669019995,85,17.9583,-102.2,74.79,4.63
503,sal rei,26,CV,1669019593,69,16.1833,-22.9167,73.89,19.73
504,bulawayo,66,ZW,1669019996,47,-20.15,28.5833,74.79,9.6
505,arman,100,RU,1669019536,92,59.7,150.1667,21.02,14.45
506,mgandu,81,TZ,1669019594,41,-5.95,34.1333,79.74,6.35
507,warrnambool,99,AU,1669019594,72,-38.3833,142.4833,48.81,26.42
508,valentigney,100,FR,1669019595,82,47.4639,6.8317,50.16,3.47
509,karpogory,94,RU,1669019595,96,64.0019,44.4451,24.73,5.93
510,yegorlykskaya,100,RU,1669019595,67,46.5656,40.6562,59.83,8.32
511,gulariya,0,NP,1669019596,40,28.2333,81.3333,78.35,5.5
512,plymouth,0,US,1669019596,56,41.8334,-70.8328,28.67,6.91
513,oktyabrskiy,70,RU,1669019596,93,54.4815,53.471,18.81,0.25
514,ihosy,73,MG,1669019597,39,-22.4,46.1167,81.25,10.65
515,seidu,86,SL,1669019597,69,9.0167,-10.6,74.95,2.35
516,seoul,75,KR,1669019306,63,37.5683,126.9778,58.6,5.75
517,guanhaes,100,BR,1669019572,98,-18.775,-42.9325,62.08,2.89
518,pak chong,71,TH,1669019598,71,14.708,101.4161,82.02,7.58
519,saint anthony,0,US,1669019998,78,45.0205,-93.218,28.0,8.05
520,inhambane,40,MZ,1669019459,44,-23.865,35.3833,82.38,9.22
521,redlands,21,US,1669019599,28,34.0556,-117.1825,56.97,1.01
522,calvinia,3,ZA,1669019599,11,-31.4707,19.776,83.8,12.53
523,saint-louis,44,SN,1669019600,14,16.3333,-15.0,65.84,12.59
524,ures,3,MX,1669019600,45,29.4333,-110.4,54.95,7.99
525,severobaykalsk,100,RU,1669019600,85,55.65,109.3167,13.48,2.53
526,xichang,91,CN,1669019601,42,27.8964,102.2634,65.43,1.63
527,sungairaya,67,ID,1669019601,68,0.7,108.9,84.04,7.96
528,kattivakkam,100,IN,1669019601,87,13.2167,80.3167,77.09,18.45
529,mumford,100,GH,1669019602,75,5.2618,-0.759,81.39,5.91
530,hobyo,98,SO,1669019602,56,5.3505,48.5268,84.42,19.3
531,healesville,100,AU,1669019603,97,-37.65,145.5167,50.36,9.1
532,la ronge,0,CA,1669019603,92,55.1001,-105.2842,14.22,6.91
533,umm lajj,3,SA,1669019603,36,25.0213,37.2685,86.23,3.27
534,adeje,20,ES,1669019466,65,28.1227,-16.726,68.56,14.97
535,wokingham,100,GB,1669019604,82,51.4112,-0.8357,44.51,4.61
536,santona,100,ES,1669019604,84,43.4439,-3.4576,63.07,23.35
537,torrijos,100,ES,1669019605,88,39.9819,-4.2835,58.06,23.98
538,doctor juan leon mallorquin,100,PY,1669019605,92,-25.4,-55.2667,74.93,2.89
539,hami,100,CN,1669020002,29,42.8,93.45,48.33,7.09
540,ostersund,100,SE,1669019606,100,63.1792,14.6357,22.6,3.44
541,griffith,0,US,1669019606,58,41.5284,-87.4237,31.1,12.66
542,maputo,75,MZ,1669019607,47,-25.9653,32.5892,80.28,9.22
543,sedro-woolley,100,US,1669019607,81,48.5039,-122.2361,42.94,6.91
544,arlit,11,NE,1669019607,14,18.7369,7.3853,80.22,6.62
545,puri,89,IN,1669020003,49,19.8,85.85,84.72,8.25
546,cam ranh,75,VN,1669019608,94,11.9214,109.1591,76.96,1.14
547,wanning,100,CN,1669020004,93,18.8003,110.3967,76.8,9.86
548,tiznit,27,MA,1669020004,24,29.5833,-9.5,68.79,2.04
549,guadalupe y calvo,4,MX,1669019609,87,26.1,-106.9667,37.36,5.32
550,idah,92,NG,1669019609,60,7.1065,6.7342,86.47,4.68
551,rehoboth,100,NA,1669019609,45,-23.3167,17.0833,73.08,6.26
552,dickinson,100,US,1669019610,70,29.4608,-95.0513,50.07,10.36
553,leningradskiy,79,RU,1669019610,91,69.3833,178.4167,-24.29,5.48
554,gualeguay,100,AR,1669019611,98,-33.1416,-59.3097,62.06,12.33
555,murgab,0,TM,1669019611,49,37.4966,61.9714,67.87,9.22
556,narsaq,95,GL,1669019612,87,60.9167,-46.05,26.82,5.5
557,naberera,96,TZ,1669019612,54,-4.2,36.9333,74.52,5.7
558,bogdanovich,11,RU,1669019612,80,56.7803,62.0494,19.02,11.88
559,bokovskaya,100,RU,1669019613,93,49.229,41.8306,49.89,8.41
560,negara,100,ID,1669019613,75,-8.3151,114.6025,81.7,4.47
561,ajdabiya,0,LY,1669019614,46,30.7554,20.2263,70.88,14.54
562,todos santos,0,MX,1669019614,84,23.45,-110.2167,67.05,3.56
563,nantucket,20,US,1669019500,46,41.2835,-70.0995,32.11,21.85
564,charters towers,58,AU,1669019844,45,-20.1,146.2667,87.66,3.6
565,kavaratti,100,IN,1669019615,53,10.5669,72.642,81.3,10.94
566,sora,1,IT,1669019615,52,41.7157,13.6141,50.11,1.99
567,jawhar,100,SO,1669019616,70,2.7809,45.5005,80.73,10.76
568,santa vitoria do palmar,100,BR,1669019499,90,-33.5189,-53.3681,67.57,5.91
569,fuente de oro,100,CO,1669019616,96,3.4594,-73.6128,70.21,2.77
570,pisco,100,PE,1669019617,88,-13.7,-76.2167,64.45,5.75
571,mazarron,39,ES,1669019505,58,37.5992,-1.3149,59.45,9.31
572,marawi,64,PH,1669019617,93,7.9986,124.2928,72.66,2.35
573,bara,2,NG,1669019618,16,10.3744,10.7288,78.58,9.98
574,de aar,100,ZA,1669019618,11,-30.6497,24.0123,79.18,12.57
575,miri,40,MY,1669019618,74,4.4148,114.0089,87.94,5.75
576,sakakah,0,SA,1669019619,33,29.9697,40.2064,67.57,5.88
577,pangnirtung,85,CA,1669019619,66,66.1451,-65.7125,-1.12,7.2
578,kholodnyy,100,RU,1669019620,100,62.7167,147.95,-3.05,3.22
579,khovu-aksy,100,RU,1669019620,92,51.1333,93.6,11.52,2.26
580,balikpapan,20,ID,1669019620,79,-1.2675,116.8289,83.39,4.61
581,manado,40,ID,1669019621,89,1.487,124.8455,81.37,5.75
582,lakeside,100,US,1669019621,76,30.13,-81.7682,53.55,12.66
583,betioky,2,MG,1669019622,26,-23.7167,44.3833,87.89,6.87
584,broken hill,0,AU,1669019622,27,-31.95,141.4333,63.1,19.84
585,denpasar,40,ID,1669019543,66,-8.65,115.2167,87.46,6.91
586,san vicente,100,AR,1669019623,93,-26.6167,-54.1333,65.03,2.57
